[
  {
    "city": "Madrid",
    "lat": "40.4169",
    "lng": "-3.7033",
    "country": "Spain",
    "iso2": "ES",
    "admin_name": "Madrid",
    "capital": "primary",
    "population": "6211000",
    "population_proper": "3266126"
  },
  {
    "city": "Barcelona",
    "lat": "41.3828",
    "lng": "2.1769",
    "country": "Spain",
    "iso2": "ES",
    "admin_name": "Catalonia",
    "capital": "admin",
    "population": "4800000",
    "population_proper": "1620343"
  },
  {
    "city": "Valencia",
    "lat": "39.4700",
    "lng": "-0.3764",
    "country": "Spain",
    "iso2": "ES",
    "admin_name": "Valencia",
    "capital": "admin",
    "population": "1595000",
    "population_proper": "807693"
  },
  {
    "city": "Sevilla",
    "lat": "37.3900",
    "lng": "-5.9900",
    "country": "Spain",
    "iso2": "ES",
    "admin_name": "Andalusia",
    "capital": "admin",
    "population": "1100000",
    "population_proper": "684025"
  },
  {
    "city": "Málaga",
    "lat": "36.7194",
    "lng": "-4.4200",
    "country": "Spain",
    "iso2": "ES",
    "admin_name": "Andalusia",
    "capital": "minor",
    "population": "967250",
    "population_proper": "586384"
  },
  {
    "city": "Zaragoza",
    "lat": "41.6500",
    "lng": "-0.8833",
    "country": "Spain",
    "iso2": "ES",
    "admin_name": "Aragon",
    "capital": "admin",
    "population": "682513",
    "population_proper": "682513"
  },
  {
    "city": "Murcia",
    "lat": "37.9861",
    "lng": "-1.1303",
    "country": "Spain",
    "iso2": "ES",
    "admin_name": "Murcia",
    "capital": "admin",
    "population": "672773",
    "population_proper": "469177"
  },
  {
    "city": "Las Palmas",
    "lat": "28.1258",
    "lng": "-15.4353",
    "country": "Spain",
    "iso2": "ES",
    "admin_name": "Canary Islands",
    "capital": "admin",
    "population": "635000",
    "population_proper": "635000"
  },
  {
    "city": "Palma",
    "lat": "39.5667",
    "lng": "2.6500",
    "country": "Spain",
    "iso2": "ES",
    "admin_name": "Balearic Islands",
    "capital": "admin",
    "population": "550000",
    "population_proper": "423350"
  },
  {
    "city": "Santa Cruz",
    "lat": "28.4667",
    "lng": "-16.2500",
    "country": "Spain",
    "iso2": "ES",
    "admin_name": "Canary Islands",
    "capital": "admin",
    "population": "538000",
    "population_proper": "209395"
  },
  {
    "city": "Alicante",
    "lat": "38.3453",
    "lng": "-0.4831",
    "country": "Spain",
    "iso2": "ES",
    "admin_name": "Valencia",
    "capital": "minor",
    "population": "349282",
    "population_proper": "349282"
  },
  {
    "city": "Córdoba",
    "lat": "37.8845",
    "lng": "-4.7796",
    "country": "Spain",
    "iso2": "ES",
    "admin_name": "Andalusia",
    "capital": "minor",
    "population": "323763",
    "population_proper": "323763"
  },
  {
    "city": "Valladolid",
    "lat": "41.6528",
    "lng": "-4.7236",
    "country": "Spain",
    "iso2": "ES",
    "admin_name": "Castille-Leon",
    "capital": "admin",
    "population": "297459",
    "population_proper": "297459"
  },
  {
    "city": "Vigo",
    "lat": "42.2314",
    "lng": "-8.7124",
    "country": "Spain",
    "iso2": "ES",
    "admin_name": "Galicia",
    "capital": "",
    "population": "293652",
    "population_proper": "293652"
  },
  {
    "city": "Gijón",
    "lat": "43.5333",
    "lng": "-5.7000",
    "country": "Spain",
    "iso2": "ES",
    "admin_name": "Asturias",
    "capital": "",
    "population": "268313",
    "population_proper": "268313"
  },
  {
    "city": "Vitoria-Gasteiz",
    "lat": "42.8500",
    "lng": "-2.6833",
    "country": "Spain",
    "iso2": "ES",
    "admin_name": "Basque Country",
    "capital": "admin",
    "population": "255886",
    "population_proper": "255886"
  },
  {
    "city": "A Coruña",
    "lat": "43.3650",
    "lng": "-8.4100",
    "country": "Spain",
    "iso2": "ES",
    "admin_name": "Galicia",
    "capital": "minor",
    "population": "247604",
    "population_proper": "247604"
  },
  {
    "city": "Granada",
    "lat": "37.1781",
    "lng": "-3.6008",
    "country": "Spain",
    "iso2": "ES",
    "admin_name": "Andalusia",
    "capital": "minor",
    "population": "230595",
    "population_proper": "230595"
  },
  {
    "city": "Badalona",
    "lat": "41.4489",
    "lng": "2.2461",
    "country": "Spain",
    "iso2": "ES",
    "admin_name": "Catalonia",
    "capital": "",
    "population": "225957",
    "population_proper": "225957"
  },
  {
    "city": "Tarrasa",
    "lat": "41.5700",
    "lng": "2.0130",
    "country": "Spain",
    "iso2": "ES",
    "admin_name": "Catalonia",
    "capital": "",
    "population": "225277",
    "population_proper": "225277"
  },
  {
    "city": "Sabadell",
    "lat": "41.5486",
    "lng": "2.1075",
    "country": "Spain",
    "iso2": "ES",
    "admin_name": "Catalonia",
    "capital": "",
    "population": "218300",
    "population_proper": "218300"
  },
  {
    "city": "Cartagena",
    "lat": "37.6000",
    "lng": "-0.9833",
    "country": "Spain",
    "iso2": "ES",
    "admin_name": "Murcia",
    "capital": "",
    "population": "218050",
    "population_proper": "218050"
  },
  {
    "city": "Oviedo",
    "lat": "43.3600",
    "lng": "-5.8450",
    "country": "Spain",
    "iso2": "ES",
    "admin_name": "Asturias",
    "capital": "admin",
    "population": "217584",
    "population_proper": "217584"
  },
  {
    "city": "Jerez de la Frontera",
    "lat": "36.6817",
    "lng": "-6.1378",
    "country": "Spain",
    "iso2": "ES",
    "admin_name": "Andalusia",
    "capital": "",
    "population": "213231",
    "population_proper": "213231"
  },
  {
    "city": "Móstoles",
    "lat": "40.3333",
    "lng": "-3.8667",
    "country": "Spain",
    "iso2": "ES",
    "admin_name": "Madrid",
    "capital": "",
    "population": "209639",
    "population_proper": "208761"
  },
  {
    "city": "Pamplona",
    "lat": "42.8167",
    "lng": "-1.6500",
    "country": "Spain",
    "iso2": "ES",
    "admin_name": "Navarre",
    "capital": "admin",
    "population": "205762",
    "population_proper": "205762"
  },
  {
    "city": "Almería",
    "lat": "36.8403",
    "lng": "-2.4681",
    "country": "Spain",
    "iso2": "ES",
    "admin_name": "Andalusia",
    "capital": "minor",
    "population": "200578",
    "population_proper": "200578"
  },
  {
    "city": "Alcalá de Henares",
    "lat": "40.4667",
    "lng": "-3.3667",
    "country": "Spain",
    "iso2": "ES",
    "admin_name": "Madrid",
    "capital": "",
    "population": "196888",
    "population_proper": "196888"
  },
  {
    "city": "Leganés",
    "lat": "40.3281",
    "lng": "-3.7644",
    "country": "Spain",
    "iso2": "ES",
    "admin_name": "Madrid",
    "capital": "",
    "population": "190665",
    "population_proper": "190665"
  },
  {
    "city": "Donostia",
    "lat": "43.3214",
    "lng": "-1.9856",
    "country": "Spain",
    "iso2": "ES",
    "admin_name": "Basque Country",
    "capital": "minor",
    "population": "188743",
    "population_proper": "188743"
  },
  {
    "city": "Getafe",
    "lat": "40.3047",
    "lng": "-3.7311",
    "country": "Spain",
    "iso2": "ES",
    "admin_name": "Madrid",
    "capital": "",
    "population": "185899",
    "population_proper": "185899"
  },
  {
    "city": "Castellón de la Plana",
    "lat": "39.9831",
    "lng": "-0.0331",
    "country": "Spain",
    "iso2": "ES",
    "admin_name": "Valencia",
    "capital": "minor",
    "population": "176238",
    "population_proper": "176238"
  },
  {
    "city": "Burgos",
    "lat": "42.3500",
    "lng": "-3.7067",
    "country": "Spain",
    "iso2": "ES",
    "admin_name": "Castille-Leon",
    "capital": "minor",
    "population": "174451",
    "population_proper": "174451"
  },
  {
    "city": "Albacete",
    "lat": "38.9956",
    "lng": "-1.8558",
    "country": "Spain",
    "iso2": "ES",
    "admin_name": "Castille-La Mancha",
    "capital": "minor",
    "population": "173206",
    "population_proper": "173206"
  },
  {
    "city": "Santander",
    "lat": "43.4628",
    "lng": "-3.8050",
    "country": "Spain",
    "iso2": "ES",
    "admin_name": "Cantabria",
    "capital": "admin",
    "population": "172726",
    "population_proper": "172726"
  },
  {
    "city": "Alcorcón",
    "lat": "40.3500",
    "lng": "-3.8333",
    "country": "Spain",
    "iso2": "ES",
    "admin_name": "Madrid",
    "capital": "",
    "population": "171772",
    "population_proper": "171772"
  },
  {
    "city": "Guadalajara",
    "lat": "40.6337",
    "lng": "-3.1674",
    "country": "Spain",
    "iso2": "ES",
    "admin_name": "Castille-La Mancha",
    "capital": "minor",
    "population": "161683",
    "population_proper": "89010"
  },
  {
    "city": "La Laguna",
    "lat": "28.4853",
    "lng": "-16.3167",
    "country": "Spain",
    "iso2": "ES",
    "admin_name": "Canary Islands",
    "capital": "",
    "population": "159034",
    "population_proper": "159034"
  },
  {
    "city": "Marbella",
    "lat": "36.5167",
    "lng": "-4.8833",
    "country": "Spain",
    "iso2": "ES",
    "admin_name": "Andalusia",
    "capital": "",
    "population": "156295",
    "population_proper": "156295"
  },
  {
    "city": "Logroño",
    "lat": "42.4650",
    "lng": "-2.4456",
    "country": "Spain",
    "iso2": "ES",
    "admin_name": "La Rioja",
    "capital": "admin",
    "population": "150583",
    "population_proper": "150583"
  },
  {
    "city": "Badajoz",
    "lat": "38.8803",
    "lng": "-6.9753",
    "country": "Spain",
    "iso2": "ES",
    "admin_name": "Extremadura",
    "capital": "minor",
    "population": "150190",
    "population_proper": "150190"
  },
  {
    "city": "Salamanca",
    "lat": "40.9650",
    "lng": "-5.6642",
    "country": "Spain",
    "iso2": "ES",
    "admin_name": "Castille-Leon",
    "capital": "minor",
    "population": "143954",
    "population_proper": "143954"
  },
  {
    "city": "Lleida",
    "lat": "41.6167",
    "lng": "0.6333",
    "country": "Spain",
    "iso2": "ES",
    "admin_name": "Catalonia",
    "capital": "minor",
    "population": "143094",
    "population_proper": "143094"
  },
  {
    "city": "Huelva",
    "lat": "37.2500",
    "lng": "-6.9500",
    "country": "Spain",
    "iso2": "ES",
    "admin_name": "Andalusia",
    "capital": "minor",
    "population": "142532",
    "population_proper": "142532"
  },
  {
    "city": "Dos Hermanas",
    "lat": "37.2836",
    "lng": "-5.9222",
    "country": "Spain",
    "iso2": "ES",
    "admin_name": "Andalusia",
    "capital": "",
    "population": "138981",
    "population_proper": "138981"
  },
  {
    "city": "Tarragona",
    "lat": "41.1175",
    "lng": "1.2528",
    "country": "Spain",
    "iso2": "ES",
    "admin_name": "Catalonia",
    "capital": "minor",
    "population": "138262",
    "population_proper": "138262"
  },
  {
    "city": "Mataró",
    "lat": "41.5333",
    "lng": "2.4500",
    "country": "Spain",
    "iso2": "ES",
    "admin_name": "Catalonia",
    "capital": "",
    "population": "129120",
    "population_proper": "128956"
  },
  {
    "city": "Torrejón de Ardoz",
    "lat": "40.4614",
    "lng": "-3.4978",
    "country": "Spain",
    "iso2": "ES",
    "admin_name": "Madrid",
    "capital": "",
    "population": "127132",
    "population_proper": "127132"
  },
  {
    "city": "Algeciras",
    "lat": "36.1275",
    "lng": "-5.4539",
    "country": "Spain",
    "iso2": "ES",
    "admin_name": "Andalusia",
    "capital": "",
    "population": "123639",
    "population_proper": "123639"
  },
  {
    "city": "León",
    "lat": "42.6056",
    "lng": "-5.5700",
    "country": "Spain",
    "iso2": "ES",
    "admin_name": "Castille-Leon",
    "capital": "minor",
    "population": "122051",
    "population_proper": "120951"
  },
  {
    "city": "Alcobendas",
    "lat": "40.5333",
    "lng": "-3.6333",
    "country": "Spain",
    "iso2": "ES",
    "admin_name": "Madrid",
    "capital": "",
    "population": "117041",
    "population_proper": "117041"
  },
  {
    "city": "Jaén",
    "lat": "37.7667",
    "lng": "-3.7711",
    "country": "Spain",
    "iso2": "ES",
    "admin_name": "Andalusia",
    "capital": "minor",
    "population": "111888",
    "population_proper": "111888"
  },
  {
    "city": "Cádiz",
    "lat": "36.5350",
    "lng": "-6.2975",
    "country": "Spain",
    "iso2": "ES",
    "admin_name": "Andalusia",
    "capital": "minor",
    "population": "111811",
    "population_proper": "111811"
  },
  {
    "city": "Reus",
    "lat": "41.1560",
    "lng": "1.1080",
    "country": "Spain",
    "iso2": "ES",
    "admin_name": "Catalonia",
    "capital": "",
    "population": "108479",
    "population_proper": "108479"
  },
  {
    "city": "Roquetas de Mar",
    "lat": "36.7642",
    "lng": "-2.6147",
    "country": "Spain",
    "iso2": "ES",
    "admin_name": "Andalusia",
    "capital": "",
    "population": "106510",
    "population_proper": "106510"
  },
  {
    "city": "Girona",
    "lat": "41.9844",
    "lng": "2.8211",
    "country": "Spain",
    "iso2": "ES",
    "admin_name": "Catalonia",
    "capital": "minor",
    "population": "104320",
    "population_proper": "104320"
  },
  {
    "city": "Ourense",
    "lat": "42.3364",
    "lng": "-7.8633",
    "country": "Spain",
    "iso2": "ES",
    "admin_name": "Galicia",
    "capital": "minor",
    "population": "104250",
    "population_proper": "104250"
  },
  {
    "city": "Telde",
    "lat": "27.9833",
    "lng": "-15.4167",
    "country": "Spain",
    "iso2": "ES",
    "admin_name": "Canary Islands",
    "capital": "",
    "population": "102769",
    "population_proper": "102472"
  },
  {
    "city": "Santiago de Compostela",
    "lat": "42.8778",
    "lng": "-8.5444",
    "country": "Spain",
    "iso2": "ES",
    "admin_name": "Galicia",
    "capital": "admin",
    "population": "98687",
    "population_proper": "98687"
  },
  {
    "city": "Las Rozas de Madrid",
    "lat": "40.4917",
    "lng": "-3.8733",
    "country": "Spain",
    "iso2": "ES",
    "admin_name": "Madrid",
    "capital": "",
    "population": "98086",
    "population_proper": "98086"
  },
  {
    "city": "San Cugat del Vallés",
    "lat": "41.4667",
    "lng": "2.0833",
    "country": "Spain",
    "iso2": "ES",
    "admin_name": "Catalonia",
    "capital": "",
    "population": "97530",
    "population_proper": "97530"
  },
  {
    "city": "San Fernando",
    "lat": "36.4667",
    "lng": "-6.2000",
    "country": "Spain",
    "iso2": "ES",
    "admin_name": "Andalusia",
    "capital": "",
    "population": "93927",
    "population_proper": "93927"
  },
  {
    "city": "Torrevieja",
    "lat": "37.9778",
    "lng": "-0.6833",
    "country": "Spain",
    "iso2": "ES",
    "admin_name": "Valencia",
    "capital": "",
    "population": "89290",
    "population_proper": "89290"
  },
  {
    "city": "Torrente",
    "lat": "39.4389",
    "lng": "-0.4656",
    "country": "Spain",
    "iso2": "ES",
    "admin_name": "Valencia",
    "capital": "",
    "population": "87295",
    "population_proper": "87295"
  },
  {
    "city": "Toledo",
    "lat": "39.8567",
    "lng": "-4.0244",
    "country": "Spain",
    "iso2": "ES",
    "admin_name": "Castille-La Mancha",
    "capital": "admin",
    "population": "86070",
    "population_proper": "86070"
  },
  {
    "city": "Fuengirola",
    "lat": "36.5417",
    "lng": "-4.6250",
    "country": "Spain",
    "iso2": "ES",
    "admin_name": "Andalusia",
    "capital": "",
    "population": "85598",
    "population_proper": "85598"
  },
  {
    "city": "Arona",
    "lat": "28.1000",
    "lng": "-16.6667",
    "country": "Spain",
    "iso2": "ES",
    "admin_name": "Canary Islands",
    "capital": "",
    "population": "85249",
    "population_proper": "85249"
  },
  {
    "city": "San Baudilio de Llobregat",
    "lat": "41.3360",
    "lng": "2.0430",
    "country": "Spain",
    "iso2": "ES",
    "admin_name": "Catalonia",
    "capital": "",
    "population": "83919",
    "population_proper": "83919"
  },
  {
    "city": "Valdemoro",
    "lat": "40.1908",
    "lng": "-3.6742",
    "country": "Spain",
    "iso2": "ES",
    "admin_name": "Madrid",
    "capital": "",
    "population": "81394",
    "population_proper": "81394"
  },
  {
    "city": "Rubí",
    "lat": "41.4933",
    "lng": "2.0325",
    "country": "Spain",
    "iso2": "ES",
    "admin_name": "Catalonia",
    "capital": "",
    "population": "80044",
    "population_proper": "80044"
  },
  {
    "city": "Manresa",
    "lat": "41.7294",
    "lng": "1.8272",
    "country": "Spain",
    "iso2": "ES",
    "admin_name": "Catalonia",
    "capital": "",
    "population": "78877",
    "population_proper": "78877"
  },
  {
    "city": "Gandía",
    "lat": "38.9667",
    "lng": "-0.1833",
    "country": "Spain",
    "iso2": "ES",
    "admin_name": "Valencia",
    "capital": "",
    "population": "78108",
    "population_proper": "78108"
  },
  {
    "city": "Benalmádena",
    "lat": "36.6000",
    "lng": "-4.5167",
    "country": "Spain",
    "iso2": "ES",
    "admin_name": "Andalusia",
    "capital": "",
    "population": "75801",
    "population_proper": "75801"
  },
  {
    "city": "Avilés",
    "lat": "43.5561",
    "lng": "-5.9083",
    "country": "Spain",
    "iso2": "ES",
    "admin_name": "Asturias",
    "capital": "",
    "population": "75518",
    "population_proper": "75518"
  },
  {
    "city": "Paterna",
    "lat": "39.5028",
    "lng": "-0.4406",
    "country": "Spain",
    "iso2": "ES",
    "admin_name": "Valencia",
    "capital": "",
    "population": "73488",
    "population_proper": "73488"
  },
  {
    "city": "Majadahonda",
    "lat": "40.4728",
    "lng": "-3.8722",
    "country": "Spain",
    "iso2": "ES",
    "admin_name": "Madrid",
    "capital": "",
    "population": "72548",
    "population_proper": "72548"
  },
  {
    "city": "Benidorm",
    "lat": "38.5342",
    "lng": "-0.1314",
    "country": "Spain",
    "iso2": "ES",
    "admin_name": "Valencia",
    "capital": "",
    "population": "72342",
    "population_proper": "72342"
  },
  {
    "city": "Torremolinos",
    "lat": "36.6218",
    "lng": "-4.5003",
    "country": "Spain",
    "iso2": "ES",
    "admin_name": "Andalusia",
    "capital": "",
    "population": "70434",
    "population_proper": "70434"
  },
  {
    "city": "Castelldefels",
    "lat": "41.2860",
    "lng": "1.9820",
    "country": "Spain",
    "iso2": "ES",
    "admin_name": "Catalonia",
    "capital": "",
    "population": "68427",
    "population_proper": "68427"
  },
  {
    "city": "Villanueva y Geltrú",
    "lat": "41.2242",
    "lng": "1.7256",
    "country": "Spain",
    "iso2": "ES",
    "admin_name": "Catalonia",
    "capital": "",
    "population": "68152",
    "population_proper": "68152"
  },
  {
    "city": "El Prat de Llobregat",
    "lat": "41.3333",
    "lng": "2.1000",
    "country": "Spain",
    "iso2": "ES",
    "admin_name": "Catalonia",
    "capital": "",
    "population": "65516",
    "population_proper": "65516"
  },
  {
    "city": "Arrecife",
    "lat": "28.9625",
    "lng": "-13.5506",
    "country": "Spain",
    "iso2": "ES",
    "admin_name": "Canary Islands",
    "capital": "",
    "population": "64497",
    "population_proper": "63750"
  },
  {
    "city": "La Línea de la Concepción",
    "lat": "36.1681",
    "lng": "-5.3486",
    "country": "Spain",
    "iso2": "ES",
    "admin_name": "Andalusia",
    "capital": "",
    "population": "63773",
    "population_proper": "63773"
  },
  {
    "city": "Granollers",
    "lat": "41.6080",
    "lng": "2.2880",
    "country": "Spain",
    "iso2": "ES",
    "admin_name": "Catalonia",
    "capital": "",
    "population": "63092",
    "population_proper": "63092"
  },
  {
    "city": "Irún",
    "lat": "43.3378",
    "lng": "-1.7888",
    "country": "Spain",
    "iso2": "ES",
    "admin_name": "Basque Country",
    "capital": "",
    "population": "62920",
    "population_proper": "62920"
  },
  {
    "city": "San Vicente del Raspeig",
    "lat": "38.3964",
    "lng": "-0.5253",
    "country": "Spain",
    "iso2": "ES",
    "admin_name": "Valencia",
    "capital": "",
    "population": "59928",
    "population_proper": "59928"
  },
  {
    "city": "Mérida",
    "lat": "38.9000",
    "lng": "-6.3333",
    "country": "Spain",
    "iso2": "ES",
    "admin_name": "Extremadura",
    "capital": "admin",
    "population": "59461",
    "population_proper": "59461"
  },
  {
    "city": "Elda",
    "lat": "38.4789",
    "lng": "-0.7967",
    "country": "Spain",
    "iso2": "ES",
    "admin_name": "Valencia",
    "capital": "",
    "population": "53034",
    "population_proper": "53034"
  },
  {
    "city": "Mollet",
    "lat": "41.5390",
    "lng": "2.2130",
    "country": "Spain",
    "iso2": "ES",
    "admin_name": "Catalonia",
    "capital": "",
    "population": "51824",
    "population_proper": "51824"
  },
  {
    "city": "Torrelavega",
    "lat": "43.3531",
    "lng": "-4.0458",
    "country": "Spain",
    "iso2": "ES",
    "admin_name": "Cantabria",
    "capital": "",
    "population": "51361",
    "population_proper": "51361"
  },
  {
    "city": "Rincón de la Victoria",
    "lat": "36.7167",
    "lng": "-4.2833",
    "country": "Spain",
    "iso2": "ES",
    "admin_name": "Andalusia",
    "capital": "",
    "population": "51300",
    "population_proper": "51300"
  },
  {
    "city": "Figueras",
    "lat": "42.2667",
    "lng": "2.9650",
    "country": "Spain",
    "iso2": "ES",
    "admin_name": "Catalonia",
    "capital": "",
    "population": "47879",
    "population_proper": "47879"
  },
  {
    "city": "Gavá",
    "lat": "41.3072",
    "lng": "2.0039",
    "country": "Spain",
    "iso2": "ES",
    "admin_name": "Catalonia",
    "capital": "",
    "population": "47593",
    "population_proper": "47593"
  },
  {
    "city": "Vich",
    "lat": "41.9303",
    "lng": "2.2547",
    "country": "Spain",
    "iso2": "ES",
    "admin_name": "Catalonia",
    "capital": "",
    "population": "47545",
    "population_proper": "47545"
  },
  {
    "city": "Mairena del Aljarafe",
    "lat": "37.3333",
    "lng": "-6.0667",
    "country": "Spain",
    "iso2": "ES",
    "admin_name": "Andalusia",
    "capital": "",
    "population": "47541",
    "population_proper": "47541"
  },
  {
    "city": "Mislata",
    "lat": "39.4750",
    "lng": "-0.4156",
    "country": "Spain",
    "iso2": "ES",
    "admin_name": "Valencia",
    "capital": "",
    "population": "45644",
    "population_proper": "45644"
  },
  {
    "city": "Portugalete",
    "lat": "43.3194",
    "lng": "-3.0194",
    "country": "Spain",
    "iso2": "ES",
    "admin_name": "Basque Country",
    "capital": "",
    "population": "44629",
    "population_proper": "44629"
  },
  {
    "city": "Alcantarilla",
    "lat": "37.9722",
    "lng": "-1.2094",
    "country": "Spain",
    "iso2": "ES",
    "admin_name": "Murcia",
    "capital": "",
    "population": "43049",
    "population_proper": "43049"
  },
  {
    "city": "Blanes",
    "lat": "41.6760",
    "lng": "2.7930",
    "country": "Spain",
    "iso2": "ES",
    "admin_name": "Catalonia",
    "capital": "",
    "population": "41653",
    "population_proper": "41653"
  },
  {
    "city": "Igualada",
    "lat": "41.5833",
    "lng": "1.6167",
    "country": "Spain",
    "iso2": "ES",
    "admin_name": "Catalonia",
    "capital": "",
    "population": "41164",
    "population_proper": "41164"
  },
  {
    "city": "Burjasot",
    "lat": "39.5064",
    "lng": "-0.4067",
    "country": "Spain",
    "iso2": "ES",
    "admin_name": "Valencia",
    "capital": "",
    "population": "39702",
    "population_proper": "39702"
  },
  {
    "city": "Vendrell",
    "lat": "41.2203",
    "lng": "1.5347",
    "country": "Spain",
    "iso2": "ES",
    "admin_name": "Catalonia",
    "capital": "",
    "population": "39601",
    "population_proper": "39601"
  },
  {
    "city": "San Fernando de Henares",
    "lat": "40.4256",
    "lng": "-3.5353",
    "country": "Spain",
    "iso2": "ES",
    "admin_name": "Madrid",
    "capital": "",
    "population": "38974",
    "population_proper": "38974"
  },
  {
    "city": "Arucas",
    "lat": "28.1188",
    "lng": "-15.5231",
    "country": "Spain",
    "iso2": "ES",
    "admin_name": "Canary Islands",
    "capital": "",
    "population": "38601",
    "population_proper": "38601"
  },
  {
    "city": "Ripollet",
    "lat": "41.4969",
    "lng": "2.1574",
    "country": "Spain",
    "iso2": "ES",
    "admin_name": "Catalonia",
    "capital": "",
    "population": "38347",
    "population_proper": "38347"
  },
  {
    "city": "Olot",
    "lat": "42.1833",
    "lng": "2.4833",
    "country": "Spain",
    "iso2": "ES",
    "admin_name": "Catalonia",
    "capital": "",
    "population": "37975",
    "population_proper": "37975"
  },
  {
    "city": "Moncada",
    "lat": "41.4872",
    "lng": "2.1878",
    "country": "Spain",
    "iso2": "ES",
    "admin_name": "Catalonia",
    "capital": "",
    "population": "36891",
    "population_proper": "36891"
  },
  {
    "city": "Cambrils",
    "lat": "41.0667",
    "lng": "1.0583",
    "country": "Spain",
    "iso2": "ES",
    "admin_name": "Catalonia",
    "capital": "",
    "population": "36496",
    "population_proper": "36496"
  },
  {
    "city": "Arroyomolinos",
    "lat": "40.2667",
    "lng": "-3.9000",
    "country": "Spain",
    "iso2": "ES",
    "admin_name": "Madrid",
    "capital": "",
    "population": "35972",
    "population_proper": "35972"
  },
  {
    "city": "Azuqueca de Henares",
    "lat": "40.5647",
    "lng": "-3.2681",
    "country": "Spain",
    "iso2": "ES",
    "admin_name": "Castille-La Mancha",
    "capital": "",
    "population": "35236",
    "population_proper": "35182"
  },
  {
    "city": "Aldaya",
    "lat": "39.4639",
    "lng": "-0.4628",
    "country": "Spain",
    "iso2": "ES",
    "admin_name": "Valencia",
    "capital": "",
    "population": "33376",
    "population_proper": "33376"
  },
  {
    "city": "Manises",
    "lat": "39.4833",
    "lng": "-0.4500",
    "country": "Spain",
    "iso2": "ES",
    "admin_name": "Valencia",
    "capital": "",
    "population": "31573",
    "population_proper": "31573"
  },
  {
    "city": "Calafell",
    "lat": "41.2020",
    "lng": "1.5700",
    "country": "Spain",
    "iso2": "ES",
    "admin_name": "Catalonia",
    "capital": "",
    "population": "30631",
    "population_proper": "30631"
  },
  {
    "city": "Salou",
    "lat": "41.0770",
    "lng": "1.1440",
    "country": "Spain",
    "iso2": "ES",
    "admin_name": "Catalonia",
    "capital": "",
    "population": "30224",
    "population_proper": "30224"
  },
  {
    "city": "Alacuás",
    "lat": "39.4583",
    "lng": "-0.4628",
    "country": "Spain",
    "iso2": "ES",
    "admin_name": "Valencia",
    "capital": "",
    "population": "29825",
    "population_proper": "29825"
  },
  {
    "city": "Catarroja",
    "lat": "39.4028",
    "lng": "-0.4044",
    "country": "Spain",
    "iso2": "ES",
    "admin_name": "Valencia",
    "capital": "",
    "population": "29316",
    "population_proper": "29316"
  },
  {
    "city": "Premiá de Mar",
    "lat": "41.4919",
    "lng": "2.3619",
    "country": "Spain",
    "iso2": "ES",
    "admin_name": "Catalonia",
    "capital": "",
    "population": "28767",
    "population_proper": "28767"
  },
  {
    "city": "Martorell",
    "lat": "41.4770",
    "lng": "1.9280",
    "country": "Spain",
    "iso2": "ES",
    "admin_name": "Catalonia",
    "capital": "",
    "population": "28760",
    "population_proper": "28760"
  },
  {
    "city": "Camas",
    "lat": "37.4000",
    "lng": "-6.0333",
    "country": "Spain",
    "iso2": "ES",
    "admin_name": "Andalusia",
    "capital": "",
    "population": "28157",
    "population_proper": "28157"
  },
  {
    "city": "Sestao",
    "lat": "43.3108",
    "lng": "-3.0056",
    "country": "Spain",
    "iso2": "ES",
    "admin_name": "Basque Country",
    "capital": "",
    "population": "27834",
    "population_proper": "27834"
  },
  {
    "city": "San Pedro del Pinatar",
    "lat": "37.8167",
    "lng": "-0.7500",
    "country": "Spain",
    "iso2": "ES",
    "admin_name": "Murcia",
    "capital": "",
    "population": "27691",
    "population_proper": "27691"
  },
  {
    "city": "Paiporta",
    "lat": "39.4278",
    "lng": "-0.4183",
    "country": "Spain",
    "iso2": "ES",
    "admin_name": "Valencia",
    "capital": "",
    "population": "27184",
    "population_proper": "27184"
  },
  {
    "city": "Santa Perpetua de Moguda",
    "lat": "41.5375",
    "lng": "2.1819",
    "country": "Spain",
    "iso2": "ES",
    "admin_name": "Catalonia",
    "capital": "",
    "population": "25928",
    "population_proper": "25928"
  },
  {
    "city": "Calpe",
    "lat": "38.6450",
    "lng": "0.0442",
    "country": "Spain",
    "iso2": "ES",
    "admin_name": "Valencia",
    "capital": "",
    "population": "25854",
    "population_proper": "25854"
  },
  {
    "city": "Alboraya",
    "lat": "39.5000",
    "lng": "-0.3522",
    "country": "Spain",
    "iso2": "ES",
    "admin_name": "Valencia",
    "capital": "",
    "population": "25792",
    "population_proper": "25792"
  },
  {
    "city": "Tomares",
    "lat": "37.3764",
    "lng": "-6.0458",
    "country": "Spain",
    "iso2": "ES",
    "admin_name": "Andalusia",
    "capital": "",
    "population": "25374",
    "population_proper": "25374"
  },
  {
    "city": "San Juan de Alicante",
    "lat": "38.4014",
    "lng": "-0.4367",
    "country": "Spain",
    "iso2": "ES",
    "admin_name": "Valencia",
    "capital": "",
    "population": "25275",
    "population_proper": "25275"
  },
  {
    "city": "Torrelodones",
    "lat": "40.5756",
    "lng": "-3.9292",
    "country": "Spain",
    "iso2": "ES",
    "admin_name": "Madrid",
    "capital": "",
    "population": "25115",
    "population_proper": "25115"
  },
  {
    "city": "Armilla",
    "lat": "37.1500",
    "lng": "-3.6167",
    "country": "Spain",
    "iso2": "ES",
    "admin_name": "Andalusia",
    "capital": "",
    "population": "25059",
    "population_proper": "25059"
  },
  {
    "city": "Olesa de Montserrat",
    "lat": "41.5450",
    "lng": "1.8944",
    "country": "Spain",
    "iso2": "ES",
    "admin_name": "Catalonia",
    "capital": "",
    "population": "24446",
    "population_proper": "24446"
  },
  {
    "city": "Erandio",
    "lat": "43.3047",
    "lng": "-2.9731",
    "country": "Spain",
    "iso2": "ES",
    "admin_name": "Basque Country",
    "capital": "",
    "population": "24411",
    "population_proper": "24411"
  },
  {
    "city": "Mejorada del Campo",
    "lat": "40.3967",
    "lng": "-3.3858",
    "country": "Spain",
    "iso2": "ES",
    "admin_name": "Madrid",
    "capital": "",
    "population": "23897",
    "population_proper": "23897"
  },
  {
    "city": "Zarautz",
    "lat": "43.2833",
    "lng": "-2.1667",
    "country": "Spain",
    "iso2": "ES",
    "admin_name": "Basque Country",
    "capital": "",
    "population": "23152",
    "population_proper": "23152"
  },
  {
    "city": "Bormujos",
    "lat": "37.3667",
    "lng": "-6.0667",
    "country": "Spain",
    "iso2": "ES",
    "admin_name": "Andalusia",
    "capital": "",
    "population": "22780",
    "population_proper": "22780"
  },
  {
    "city": "San Juan de Aznalfarache",
    "lat": "37.3667",
    "lng": "-6.0167",
    "country": "Spain",
    "iso2": "ES",
    "admin_name": "Andalusia",
    "capital": "",
    "population": "22472",
    "population_proper": "22472"
  },
  {
    "city": "Moncada",
    "lat": "39.5431",
    "lng": "-0.3928",
    "country": "Spain",
    "iso2": "ES",
    "admin_name": "Valencia",
    "capital": "",
    "population": "22067",
    "population_proper": "22067"
  },
  {
    "city": "Alfafar",
    "lat": "39.4222",
    "lng": "-0.3906",
    "country": "Spain",
    "iso2": "ES",
    "admin_name": "Valencia",
    "capital": "",
    "population": "21879",
    "population_proper": "21879"
  },
  {
    "city": "Manlleu",
    "lat": "42.0000",
    "lng": "2.2836",
    "country": "Spain",
    "iso2": "ES",
    "admin_name": "Catalonia",
    "capital": "",
    "population": "21172",
    "population_proper": "21172"
  },
  {
    "city": "Palafrugell",
    "lat": "41.9174",
    "lng": "3.1631",
    "country": "Spain",
    "iso2": "ES",
    "admin_name": "Catalonia",
    "capital": "",
    "population": "21049",
    "population_proper": "21049"
  },
  {
    "city": "Puzol",
    "lat": "39.6167",
    "lng": "-0.3011",
    "country": "Spain",
    "iso2": "ES",
    "admin_name": "Valencia",
    "capital": "",
    "population": "20731",
    "population_proper": "20731"
  },
  {
    "city": "Bañolas",
    "lat": "42.1194",
    "lng": "2.7664",
    "country": "Spain",
    "iso2": "ES",
    "admin_name": "Catalonia",
    "capital": "",
    "population": "20506",
    "population_proper": "20506"
  },
  {
    "city": "Sant Just Desvern",
    "lat": "41.3830",
    "lng": "2.0750",
    "country": "Spain",
    "iso2": "ES",
    "admin_name": "Catalonia",
    "capital": "",
    "population": "20462",
    "population_proper": "20462"
  },
  {
    "city": "Archena",
    "lat": "38.1150",
    "lng": "-1.2992",
    "country": "Spain",
    "iso2": "ES",
    "admin_name": "Murcia",
    "capital": "",
    "population": "20110",
    "population_proper": "20110"
  },
  {
    "city": "Calella",
    "lat": "41.6128",
    "lng": "2.6575",
    "country": "Spain",
    "iso2": "ES",
    "admin_name": "Catalonia",
    "capital": "",
    "population": "19862",
    "population_proper": "19862"
  },
  {
    "city": "Humanes de Madrid",
    "lat": "40.2539",
    "lng": "-3.8278",
    "country": "Spain",
    "iso2": "ES",
    "admin_name": "Madrid",
    "capital": "",
    "population": "19838",
    "population_proper": "19838"
  },
  {
    "city": "Barañáin",
    "lat": "42.8000",
    "lng": "-1.6667",
    "country": "Spain",
    "iso2": "ES",
    "admin_name": "Navarre",
    "capital": "",
    "population": "19575",
    "population_proper": "19575"
  },
  {
    "city": "Malgrat de Mar",
    "lat": "41.6500",
    "lng": "2.7500",
    "country": "Spain",
    "iso2": "ES",
    "admin_name": "Catalonia",
    "capital": "",
    "population": "19213",
    "population_proper": "19213"
  },
  {
    "city": "Cardedeu",
    "lat": "41.6406",
    "lng": "2.3594",
    "country": "Spain",
    "iso2": "ES",
    "admin_name": "Catalonia",
    "capital": "",
    "population": "19023",
    "population_proper": "19023"
  },
  {
    "city": "Utebo",
    "lat": "41.7167",
    "lng": "-1.0000",
    "country": "Spain",
    "iso2": "ES",
    "admin_name": "Aragon",
    "capital": "",
    "population": "18955",
    "population_proper": "18955"
  },
  {
    "city": "El Astillero",
    "lat": "43.4017",
    "lng": "-3.8194",
    "country": "Spain",
    "iso2": "ES",
    "admin_name": "Cantabria",
    "capital": "",
    "population": "18220",
    "population_proper": "18220"
  },
  {
    "city": "Palamós",
    "lat": "41.8500",
    "lng": "3.1292",
    "country": "Spain",
    "iso2": "ES",
    "admin_name": "Catalonia",
    "capital": "",
    "population": "18196",
    "population_proper": "18145"
  },
  {
    "city": "Torredembarra",
    "lat": "41.1500",
    "lng": "1.4000",
    "country": "Spain",
    "iso2": "ES",
    "admin_name": "Catalonia",
    "capital": "",
    "population": "17670",
    "population_proper": "17670"
  },
  {
    "city": "Castilleja de la Cuesta",
    "lat": "37.3833",
    "lng": "-6.0500",
    "country": "Spain",
    "iso2": "ES",
    "admin_name": "Andalusia",
    "capital": "",
    "population": "17167",
    "population_proper": "17167"
  },
  {
    "city": "Canovellas",
    "lat": "41.6203",
    "lng": "2.2847",
    "country": "Spain",
    "iso2": "ES",
    "admin_name": "Catalonia",
    "capital": "",
    "population": "17051",
    "population_proper": "17051"
  },
  {
    "city": "Albal",
    "lat": "39.3972",
    "lng": "-0.4156",
    "country": "Spain",
    "iso2": "ES",
    "admin_name": "Valencia",
    "capital": "",
    "population": "17024",
    "population_proper": "17024"
  },
  {
    "city": "Cubellas",
    "lat": "41.2100",
    "lng": "1.6736",
    "country": "Spain",
    "iso2": "ES",
    "admin_name": "Catalonia",
    "capital": "",
    "population": "16914",
    "population_proper": "16914"
  },
  {
    "city": "Montornés del Vallés",
    "lat": "41.5333",
    "lng": "2.2667",
    "country": "Spain",
    "iso2": "ES",
    "admin_name": "Catalonia",
    "capital": "",
    "population": "16800",
    "population_proper": "16800"
  },
  {
    "city": "Masamagrell",
    "lat": "39.5703",
    "lng": "-0.3300",
    "country": "Spain",
    "iso2": "ES",
    "admin_name": "Valencia",
    "capital": "",
    "population": "16766",
    "population_proper": "16766"
  },
  {
    "city": "Arenys de Mar",
    "lat": "41.5819",
    "lng": "2.5503",
    "country": "Spain",
    "iso2": "ES",
    "admin_name": "Catalonia",
    "capital": "",
    "population": "16342",
    "population_proper": "16342"
  },
  {
    "city": "Aguadulce",
    "lat": "36.7642",
    "lng": "-2.6147",
    "country": "Spain",
    "iso2": "ES",
    "admin_name": "Andalusia",
    "capital": "",
    "population": "16176",
    "population_proper": "16176"
  },
  {
    "city": "Cunit",
    "lat": "41.1983",
    "lng": "1.6406",
    "country": "Spain",
    "iso2": "ES",
    "admin_name": "Catalonia",
    "capital": "",
    "population": "15278",
    "population_proper": "15278"
  },
  {
    "city": "Mollerusa",
    "lat": "41.6319",
    "lng": "0.8961",
    "country": "Spain",
    "iso2": "ES",
    "admin_name": "Catalonia",
    "capital": "",
    "population": "15037",
    "population_proper": "15037"
  },
  {
    "city": "Canet de Mar",
    "lat": "41.5833",
    "lng": "2.5833",
    "country": "Spain",
    "iso2": "ES",
    "admin_name": "Catalonia",
    "capital": "",
    "population": "15010",
    "population_proper": "15010"
  },
  {
    "city": "Torelló",
    "lat": "42.0495",
    "lng": "2.2650",
    "country": "Spain",
    "iso2": "ES",
    "admin_name": "Catalonia",
    "capital": "",
    "population": "14902",
    "population_proper": "14902"
  },
  {
    "city": "Sopelana",
    "lat": "43.3814",
    "lng": "-2.9792",
    "country": "Spain",
    "iso2": "ES",
    "admin_name": "Basque Country",
    "capital": "",
    "population": "14872",
    "population_proper": "14872"
  },
  {
    "city": "Ogíjares",
    "lat": "37.1167",
    "lng": "-3.6000",
    "country": "Spain",
    "iso2": "ES",
    "admin_name": "Andalusia",
    "capital": "",
    "population": "14803",
    "population_proper": "14803"
  },
  {
    "city": "Cuarte de Huerva",
    "lat": "41.5833",
    "lng": "-0.9167",
    "country": "Spain",
    "iso2": "ES",
    "admin_name": "Aragon",
    "capital": "",
    "population": "14701",
    "population_proper": "14701"
  },
  {
    "city": "Gines",
    "lat": "37.3875",
    "lng": "-6.0781",
    "country": "Spain",
    "iso2": "ES",
    "admin_name": "Andalusia",
    "capital": "",
    "population": "13481",
    "population_proper": "13481"
  },
  {
    "city": "Godella",
    "lat": "39.5200",
    "lng": "-0.4114",
    "country": "Spain",
    "iso2": "ES",
    "admin_name": "Valencia",
    "capital": "",
    "population": "13050",
    "population_proper": "13050"
  },
  {
    "city": "Vilanova del Camí",
    "lat": "41.5667",
    "lng": "1.6333",
    "country": "Spain",
    "iso2": "ES",
    "admin_name": "Catalonia",
    "capital": "",
    "population": "12736",
    "population_proper": "12699"
  },
  {
    "city": "Ceuti",
    "lat": "38.0789",
    "lng": "-1.2722",
    "country": "Spain",
    "iso2": "ES",
    "admin_name": "Murcia",
    "capital": "",
    "population": "12668",
    "population_proper": "12668"
  },
  {
    "city": "Peligros",
    "lat": "37.2333",
    "lng": "-3.6333",
    "country": "Spain",
    "iso2": "ES",
    "admin_name": "Andalusia",
    "capital": "",
    "population": "11676",
    "population_proper": "11676"
  },
  {
    "city": "Beniel",
    "lat": "38.0464",
    "lng": "-1.0014",
    "country": "Spain",
    "iso2": "ES",
    "admin_name": "Murcia",
    "capital": "",
    "population": "11501",
    "population_proper": "11501"
  },
  {
    "city": "Berriozar",
    "lat": "42.8361",
    "lng": "-1.6714",
    "country": "Spain",
    "iso2": "ES",
    "admin_name": "Navarre",
    "capital": "",
    "population": "10919",
    "population_proper": "10919"
  },
  {
    "city": "Meliana",
    "lat": "39.5272",
    "lng": "-0.3492",
    "country": "Spain",
    "iso2": "ES",
    "admin_name": "Valencia",
    "capital": "",
    "population": "10918",
    "population_proper": "10918"
  },
  {
    "city": "Sedaví",
    "lat": "39.4250",
    "lng": "-0.3850",
    "country": "Spain",
    "iso2": "ES",
    "admin_name": "Valencia",
    "capital": "",
    "population": "10637",
    "population_proper": "10637"
  },
  {
    "city": "Gelves",
    "lat": "37.3333",
    "lng": "-6.0167",
    "country": "Spain",
    "iso2": "ES",
    "admin_name": "Andalusia",
    "capital": "",
    "population": "10388",
    "population_proper": "10388"
  },
  {
    "city": "Alella",
    "lat": "41.4950",
    "lng": "2.2960",
    "country": "Spain",
    "iso2": "ES",
    "admin_name": "Catalonia",
    "capital": "",
    "population": "10139",
    "population_proper": "10139"
  },
  {
    "city": "Tiana",
    "lat": "41.4831",
    "lng": "2.2697",
    "country": "Spain",
    "iso2": "ES",
    "admin_name": "Catalonia",
    "capital": "",
    "population": "9198",
    "population_proper": "9198"
  },
  {
    "city": "Montmeló",
    "lat": "41.5547",
    "lng": "2.2500",
    "country": "Spain",
    "iso2": "ES",
    "admin_name": "Catalonia",
    "capital": "",
    "population": "8825",
    "population_proper": "8825"
  },
  {
    "city": "Reinosa",
    "lat": "43.0019",
    "lng": "-4.1378",
    "country": "Spain",
    "iso2": "ES",
    "admin_name": "Cantabria",
    "capital": "",
    "population": "8570",
    "population_proper": "8570"
  },
  {
    "city": "Colindres",
    "lat": "43.3967",
    "lng": "-3.4483",
    "country": "Spain",
    "iso2": "ES",
    "admin_name": "Cantabria",
    "capital": "",
    "population": "8549",
    "population_proper": "8549"
  },
  {
    "city": "Santiponce",
    "lat": "37.4353",
    "lng": "-6.0433",
    "country": "Spain",
    "iso2": "ES",
    "admin_name": "Andalusia",
    "capital": "",
    "population": "8539",
    "population_proper": "8539"
  },
  {
    "city": "Ortuella",
    "lat": "43.3103",
    "lng": "-3.0569",
    "country": "Spain",
    "iso2": "ES",
    "admin_name": "Basque Country",
    "capital": "",
    "population": "8536",
    "population_proper": "8536"
  },
  {
    "city": "Santa Coloma de Cervelló",
    "lat": "41.3639",
    "lng": "2.0279",
    "country": "Spain",
    "iso2": "ES",
    "admin_name": "Catalonia",
    "capital": "",
    "population": "8393",
    "population_proper": "8393"
  },
  {
    "city": "Puebla de Farnals",
    "lat": "39.5643",
    "lng": "-0.2834",
    "country": "Spain",
    "iso2": "ES",
    "admin_name": "Valencia",
    "capital": "",
    "population": "8368",
    "population_proper": "8368"
  },
  {
    "city": "Ondárroa",
    "lat": "43.3219",
    "lng": "-2.4194",
    "country": "Spain",
    "iso2": "ES",
    "admin_name": "Basque Country",
    "capital": "",
    "population": "8179",
    "population_proper": "8179"
  },
  {
    "city": "Cabrils",
    "lat": "41.5262",
    "lng": "2.3677",
    "country": "Spain",
    "iso2": "ES",
    "admin_name": "Catalonia",
    "capital": "",
    "population": "7799",
    "population_proper": "7799"
  },
  {
    "city": "Foyos",
    "lat": "39.5386",
    "lng": "-0.3567",
    "country": "Spain",
    "iso2": "ES",
    "admin_name": "Valencia",
    "capital": "",
    "population": "7641",
    "population_proper": "7641"
  },
  {
    "city": "Rocafort",
    "lat": "39.5306",
    "lng": "-0.4100",
    "country": "Spain",
    "iso2": "ES",
    "admin_name": "Valencia",
    "capital": "",
    "population": "7570",
    "population_proper": "7570"
  },
  {
    "city": "Bigastro",
    "lat": "38.0631",
    "lng": "-0.8956",
    "country": "Spain",
    "iso2": "ES",
    "admin_name": "Valencia",
    "capital": "",
    "population": "7361",
    "population_proper": "7361"
  },
  {
    "city": "Lekeitio",
    "lat": "43.3622",
    "lng": "-2.4961",
    "country": "Spain",
    "iso2": "ES",
    "admin_name": "Basque Country",
    "capital": "",
    "population": "7143",
    "population_proper": "7143"
  },
  {
    "city": "Villanueva del Ariscal",
    "lat": "37.3833",
    "lng": "-6.1333",
    "country": "Spain",
    "iso2": "ES",
    "admin_name": "Andalusia",
    "capital": "",
    "population": "6814",
    "population_proper": "6814"
  },
  {
    "city": "Teyá",
    "lat": "41.4990",
    "lng": "2.3240",
    "country": "Spain",
    "iso2": "ES",
    "admin_name": "Catalonia",
    "capital": "",
    "population": "6696",
    "population_proper": "6696"
  },
  {
    "city": "Nazaret",
    "lat": "39.4481",
    "lng": "-0.3335",
    "country": "Spain",
    "iso2": "ES",
    "admin_name": "Valencia",
    "capital": "",
    "population": "6117",
    "population_proper": "6117"
  },
  {
    "city": "Navarcles",
    "lat": "41.7520",
    "lng": "1.9030",
    "country": "Spain",
    "iso2": "ES",
    "admin_name": "Catalonia",
    "capital": "",
    "population": "6109",
    "population_proper": "6109"
  },
  {
    "city": "Tanos",
    "lat": "43.3325",
    "lng": "-4.0438",
    "country": "Spain",
    "iso2": "ES",
    "admin_name": "Cantabria",
    "capital": "",
    "population": "5857",
    "population_proper": "5857"
  },
  {
    "city": "Cájar",
    "lat": "37.1333",
    "lng": "-3.5667",
    "country": "Spain",
    "iso2": "ES",
    "admin_name": "Andalusia",
    "capital": "",
    "population": "5447",
    "population_proper": "5447"
  },
  {
    "city": "Capellades",
    "lat": "41.5319",
    "lng": "1.6867",
    "country": "Spain",
    "iso2": "ES",
    "admin_name": "Catalonia",
    "capital": "",
    "population": "5417",
    "population_proper": "5417"
  },
  {
    "city": "Sarriá de Ter",
    "lat": "42.0140",
    "lng": "2.8180",
    "country": "Spain",
    "iso2": "ES",
    "admin_name": "Catalonia",
    "capital": "",
    "population": "5327",
    "population_proper": "5327"
  },
  {
    "city": "Bellreguart",
    "lat": "38.9464",
    "lng": "-0.1625",
    "country": "Spain",
    "iso2": "ES",
    "admin_name": "Valencia",
    "capital": "",
    "population": "4811",
    "population_proper": "4811"
  },
  {
    "city": "Rafal",
    "lat": "38.1000",
    "lng": "-0.8333",
    "country": "Spain",
    "iso2": "ES",
    "admin_name": "Valencia",
    "capital": "",
    "population": "4634",
    "population_proper": "4634"
  },
  {
    "city": "Hostalrich",
    "lat": "41.7500",
    "lng": "2.6333",
    "country": "Spain",
    "iso2": "ES",
    "admin_name": "Catalonia",
    "capital": "",
    "population": "4410",
    "population_proper": "4410"
  },
  {
    "city": "Jun",
    "lat": "37.2167",
    "lng": "-3.6000",
    "country": "Spain",
    "iso2": "ES",
    "admin_name": "Andalusia",
    "capital": "",
    "population": "4061",
    "population_proper": "4061"
  },
  {
    "city": "San Hipólito de Voltregá",
    "lat": "42.0172",
    "lng": "2.2389",
    "country": "Spain",
    "iso2": "ES",
    "admin_name": "Catalonia",
    "capital": "",
    "population": "3711",
    "population_proper": "3711"
  },
  {
    "city": "Vinalesa",
    "lat": "39.5381",
    "lng": "-0.3706",
    "country": "Spain",
    "iso2": "ES",
    "admin_name": "Valencia",
    "capital": "",
    "population": "3495",
    "population_proper": "3495"
  },
  {
    "city": "Alfara del Patriarca",
    "lat": "39.5436",
    "lng": "-0.3850",
    "country": "Spain",
    "iso2": "ES",
    "admin_name": "Valencia",
    "capital": "",
    "population": "3455",
    "population_proper": "3455"
  },
  {
    "city": "San Andrés",
    "lat": "28.5042",
    "lng": "-16.1931",
    "country": "Spain",
    "iso2": "ES",
    "admin_name": "Canary Islands",
    "capital": "",
    "population": "3121",
    "population_proper": "3121"
  },
  {
    "city": "Miramar",
    "lat": "38.9500",
    "lng": "-0.1389",
    "country": "Spain",
    "iso2": "ES",
    "admin_name": "Valencia",
    "capital": "",
    "population": "2978",
    "population_proper": "2978"
  },
  {
    "city": "Castilleja de Guzmán",
    "lat": "37.4000",
    "lng": "-6.0500",
    "country": "Spain",
    "iso2": "ES",
    "admin_name": "Andalusia",
    "capital": "",
    "population": "2874",
    "population_proper": "2874"
  },
  {
    "city": "Barreda",
    "lat": "43.3722",
    "lng": "-4.0408",
    "country": "Spain",
    "iso2": "ES",
    "admin_name": "Cantabria",
    "capital": "",
    "population": "2689",
    "population_proper": "2689"
  },
  {
    "city": "Almoines",
    "lat": "38.9433",
    "lng": "-0.1822",
    "country": "Spain",
    "iso2": "ES",
    "admin_name": "Valencia",
    "capital": "",
    "population": "2519",
    "population_proper": "2519"
  },
  {
    "city": "Benisanó",
    "lat": "39.6136",
    "lng": "-0.5778",
    "country": "Spain",
    "iso2": "ES",
    "admin_name": "Valencia",
    "capital": "",
    "population": "2385",
    "population_proper": "2385"
  },
  {
    "city": "Varea",
    "lat": "42.4636",
    "lng": "-2.4072",
    "country": "Spain",
    "iso2": "ES",
    "admin_name": "La Rioja",
    "capital": "",
    "population": "1866",
    "population_proper": "1866"
  },
  {
    "city": "El Saler",
    "lat": "39.3825",
    "lng": "-0.3325",
    "country": "Spain",
    "iso2": "ES",
    "admin_name": "Valencia",
    "capital": "",
    "population": "1699",
    "population_proper": "1699"
  },
  {
    "city": "El Perelló",
    "lat": "39.2797",
    "lng": "-0.2775",
    "country": "Spain",
    "iso2": "ES",
    "admin_name": "Valencia",
    "capital": "",
    "population": "1602",
    "population_proper": "1602"
  },
  {
    "city": "Benirredrá",
    "lat": "38.9611",
    "lng": "-0.1919",
    "country": "Spain",
    "iso2": "ES",
    "admin_name": "Valencia",
    "capital": "",
    "population": "1571",
    "population_proper": "1571"
  },
  {
    "city": "Carpesa",
    "lat": "39.5167",
    "lng": "-0.3778",
    "country": "Spain",
    "iso2": "ES",
    "admin_name": "Valencia",
    "capital": "",
    "population": "1215",
    "population_proper": "1215"
  },
  {
    "city": "Igueldo",
    "lat": "43.3089",
    "lng": "-2.0372",
    "country": "Spain",
    "iso2": "ES",
    "admin_name": "Basque Country",
    "capital": "",
    "population": "1105",
    "population_proper": "1105"
  },
  {
    "city": "Palmera",
    "lat": "38.9417",
    "lng": "-0.1517",
    "country": "Spain",
    "iso2": "ES",
    "admin_name": "Valencia",
    "capital": "",
    "population": "1043",
    "population_proper": "1043"
  },
  {
    "city": "Hortaleza",
    "lat": "40.4667",
    "lng": "-3.6333",
    "country": "Spain",
    "iso2": "ES",
    "admin_name": "Madrid",
    "capital": "",
    "population": "1039",
    "population_proper": "1039"
  },
  {
    "city": "Torres",
    "lat": "43.3532",
    "lng": "-4.0684",
    "country": "Spain",
    "iso2": "ES",
    "admin_name": "Cantabria",
    "capital": "",
    "population": "1033",
    "population_proper": "1033"
  }
]